sampleTimeStamp.seconds;sampleTimeStamp.microseconds;y;x;alt;vel_north;vel_east;vel_down;roll;pitch;heading;speed;arate_lon;arate_trans;arate_down;accel_x;accel_y;accel_down
1584854176;63552;57.709901458;11.927803441;40.557737909;0.454913;-0.4109851;-0.01508905;-1.2825332633;-3.493549959;120.80677693;0.6130698;-0.2535681;0.03501488;0.1635954;-1.760703;0.09572054;0.04059482
1584854176;113612;57.709901563;11.927803007;40.558971155;0.4076444;-0.3349314;-0.007314415;-1.2985635578;-3.4901210456;120.82134766;0.5275917;-0.1189694;0.1759726;0.292419;-1.785537;0.04502087;-0.01255691
1584854176;163717;57.709901647;11.927802636;40.559988142;0.3635547;-0.2618709;-0.006511299;-1.303204805;-3.4911192464;120.83614156;0.4480496;0.0732915;-0.1005807;0.3793363;-1.702301;-0.002238923;-0.06797891
1584854176;213635;57.709901713;11.927802323;40.560871945;0.3214748;-0.1988531;-0.002797734;-1.305069758;-3.4989731198;120.84645228;0.3780061;-0.1056068;-0.1695067;0.2367737;-1.410501;0.004612247;0.0382732
1584854176;263579;57.709901761;11.927802062;40.561647527;0.2838138;-0.1403536;-0.002549965;-1.3043081906;-3.5099959858;120.85246803;0.3166218;-0.08637768;-0.2732452;0.218393;-1.382367;0.009502511;-0.144376
1584854176;313641;57.709901793;11.927801846;40.562405291;0.2486922;-0.09168027;-0.001135152;-1.3085318616;-3.5287109959;120.85453802;0.265053;-0.3452486;-0.4194284;0.06405035;-1.067881;0.02597992;0.1051317
1584854176;363632;57.709901813;11.927801672;40.563046105;0.2200654;-0.04413198;0.00060923;-1.3088212456;-3.5471857576;120.85635225;0.2244469;0.304471;-0.3589356;0.03508148;-1.143693;0.02243236;-0.1582132
1584854176;413610;57.70990182;11.927801534;40.563717002;0.1939167;-0.004996768;-0.001221507;-1.3075314035;-3.5721773275;120.85852539;0.1939811;-0.07771072;-0.5992205;0.1195915;-0.814812;0.01917646;0.05418557
1584854176;463596;57.709901816;11.927801429;40.564279094;0.1663721;0.03184139;0.004014567;-1.3071259107;-3.5925734564;120.86334154;0.1693917;0.1013962;-0.2258719;-0.01976287;-0.9778276;0.05171291;-0.1417416
1584854176;513618;57.709901801;11.927801355;40.564872345;0.1469227;0.06849206;-0.0001828908;-1.308403144;-3.6140870674;120.86969111;0.1621031;-0.07965591;-0.507341;0.3401549;-0.7207844;-0.04688295;0.001893214
1584854176;563608;57.709901777;11.927801311;40.565395453;0.1203316;0.1004572;0.005039909;-1.3110795259;-3.6298165026;120.87465266;0.1567525;0.1425942;-0.120345;-0.05865576;-0.8699153;0.02709926;-0.105056
1584854176;613682;57.709901743;11.927801295;40.565864303;0.09861947;0.1345388;0.001021198;-1.3116295993;-3.6392309681;120.877037;0.1668127;-0.241972;-0.3119403;0.01866987;-0.748456;-0.0736331;-0.06038744
1584854176;663671;57.7099017;11.927801308;40.566284296;0.07316831;0.1665642;0.008665598;-1.3143001287;-3.6435146995;120.87594978;0.1819265;0.02667514;0.201988;-0.2752899;-0.826982;0.1020105;-0.03301066
1584854176;713598;57.709901647;11.927801351;40.566630273;0.05204387;0.2009945;0.003868459;-1.3131537605;-3.6398234079;120.87386592;0.2076231;-0.180769;-0.02084463;-0.09752516;-0.6816778;-0.02374944;-0.09273659
1584854176;763692;57.709901586;11.927801415;40.567007658;0.04094564;0.2134412;0.006538019;-1.318535311;-3.6431813597;120.87274367;0.2173332;-0.2532933;-0.1577236;-0.1159512;0.006799786;0.1154834;0.2814367
1584854176;813610;57.709901524;11.927801482;40.567383143;0.04401991;0.2082551;0.004989697;-1.3125712025;-3.6616289217;120.87388899;0.2128566;0.4591989;-0.4966027;-0.1176248;0.1904119;-0.05137693;-0.1591593
1584854176;863615;57.709901466;11.927801535;40.568125261;0.05602538;0.183579;-0.005199846;-1.3150760122;-3.716506352;120.87695746;0.1919378;-0.2870589;-1.382207;0.02635727;0.5778297;0.08870856;0.1840176
1584854176;913617;57.709901415;11.927801571;40.569037751;0.06816082;0.1654074;-0.00566512;-1.310573391;-3.7815756658;120.88071869;0.1789008;0.3488095;-1.198609;0.09005662;0.2833494;-0.01428373;-0.1879033
1584854176;963759;57.709901367;11.927801593;40.570130527;0.07336165;0.1533403;-0.01161016;-1.3093696594;-3.8440236608;120.88153411;0.1699858;-0.4032233;-1.302761;0.1819912;0.233415;0.007947964;0.1003857
1584854177;13577;57.709901318;11.927801603;40.5710147;0.06955899;0.1572315;0.001825729;-1.2916140534;-3.8744921997;120.88013322;0.1719308;0.5405489;-0.02357225;0.05122709;-0.3133111;0.006118345;-0.2442553
1584854177;63631;57.709901258;11.927801591;40.571760095;0.06001052;0.1617706;-0.001518481;-1.2917846315;-3.8787068208;120.87993995;0.1725428;-0.4738545;-0.1315394;-0.04806605;-0.06203876;-0.005779844;0.1344407
1584854177;113632;57.709901196;11.927801585;40.572057869;0.05415954;0.1709436;0.01675051;-1.293123867;-3.8535351832;120.88033862;0.179318;0.4517742;0.9332725;-0.042141;-0.2673829;0.02338362;0.03763025
1584854177;163610;57.709901132;11.927801586;40.572199484;0.05151564;0.1723303;0.004964842;-1.2930329953;-3.826786668;120.88231685;0.1798655;-0.5405266;-0.0001151654;0.07698818;0.05353767;-0.1142004;0.03084535
1584854177;213689;57.709901068;11.927801585;40.57236576;0.05111616;0.1692667;0.0164469;-1.2954740182;-3.8136556145;120.88238821;0.1768165;0.2805847;0.4912383;-0.03527597;0.01485025;0.1058455;0.09326445
1584854177;263710;57.709901005;11.927801583;40.572692343;0.05195122;0.1645945;0.0007590363;-1.2915513898;-3.8152221887;120.88258603;0.1725986;-0.2357388;-0.4503997;0.04928041;0.0967422;-0.09285143;-0.1409121
1584854177;313682;57.709900942;11.927801576;40.573264025;0.05188268;0.1611282;0.006281829;-1.2972631123;-3.8299082253;120.88148337;0.1692753;0.2145583;-0.05623087;0.05967367;0.07742211;0.1583077;0.1184303
1584854177;363673;57.709900879;11.92780157;40.573818638;0.04608803;0.1614186;0.0005869882;-1.29197661;-3.8341039827;120.88084549;0.1678693;0.0851854;-0.1048971;-0.1804975;-0.1216301;-0.09476896;-0.2663362
1584854177;413705;57.709900815;11.927801565;40.574440807;0.04410682;0.1593793;0.006944647;-1.2957693308;-3.8367950106;120.88235669;0.1653698;-0.132743;0.2029049;-0.1022778;0.1548221;0.1961167;0.2318616
1584854177;463746;57.709900752;11.927801561;40.574847678;0.04707743;0.1628314;0.006785106;-1.2881181237;-3.8266222312;120.88342722;0.1695003;0.4155847;0.2448457;0.1682711;-0.1463582;-0.1287443;-0.2428927
1584854177;513671;57.709900688;11.927801554;40.575325158;0.04482346;0.1550825;0.004370306;-1.2946601509;-3.8267567522;120.88360758;0.1614303;-0.4282964;-0.1839879;0.06549482;0.2560073;0.1440572;0.334495
1584854177;563630;57.709900625;11.927801547;40.575670559;0.04332844;0.1562502;0.009064758;-1.2882289666;-3.8223502771;120.88306895;0.1621464;0.5899229;0.2545629;-0.114493;-0.22786;-0.09447986;-0.3505667
1584854177;613662;57.709900562;11.927801539;40.576240677;0.04105895;0.1528617;0.0001266633;-1.2931262182;-3.830117531;120.88395033;0.15828;-0.5568327;-0.3747241;0.008038844;0.1424433;0.07447652;0.2505287
1584854177;663667;57.709900498;11.927801533;40.576708084;0.04035765;0.1578706;0.009212954;-1.290234649;-3.8272767254;120.88419273;0.1629474;0.6686012;0.3754904;0.09296216;-0.1984088;-0.05098798;-0.2327138
1584854177;713677;57.709900434;11.927801527;40.577289376;0.03735005;0.1541393;-0.001099025;-1.2930145726;-3.8293844119;120.88547218;0.1586;-0.6241434;-0.3645025;0.1610863;0.1383908;0.04931382;0.2301764
1584854177;763711;57.709900369;11.927801521;40.577728211;0.03414492;0.1526288;0.01000273;-1.2906064266;-3.8260566492;120.88475632;0.1564015;0.6252859;0.3177136;-0.1977661;-0.07308102;-0.02480473;-0.1649142
1584854177;813677;57.709900305;11.927801513;40.578236896;0.03307737;0.147112;0.001371444;-1.2920487849;-3.8300719448;120.88616421;0.1507847;-0.382563;-0.3424668;-0.1329881;0.2057202;0.04828722;0.2365533
1584854177;863734;57.709900241;11.927801505;40.578633453;0.03364411;0.1489923;0.01079;-1.2895696188;-3.8283355714;120.88587784;0.1527437;0.7758468;0.3291154;-0.06492107;-0.1917423;0.001663007;-0.2007824
1584854177;913625;57.709900177;11.927801496;40.579135162;0.03015087;0.1459439;-0.003105551;-1.2899572582;-3.8295285659;120.88636771;0.1490258;-0.4889034;-0.4780046;-0.05659045;0.08211406;-0.06176062;0.0006752999
1584854177;963826;57.709900112;11.927801487;40.57964599;0.02973646;0.1462452;0.01220474;-1.2927952956;-3.829088538;120.88664882;0.1492378;0.70613;0.4627395;-0.09827837;0.01877985;0.1243935;0.1278201
1584854178;13556;57.709900055;11.927801488;40.580052201;0.02953201;0.1473039;0.0009474843;-1.2780866082;-3.8235932345;120.88747512;0.1502351;0.1321306;-0.1284909;0.08897813;-0.09730153;-0.1657471;-0.2228105
1584854178;63547;57.709900012;11.927801506;40.580451577;0.02651896;0.1423418;0.005848831;-1.2862008391;-3.8283140383;120.88713806;0.144791;-0.005756173;-0.03351869;-0.05712498;0.1306829;0.1761077;0.2246518
1584854178;113612;57.70989997;11.927801524;40.580718167;0.02656055;0.1442743;0.003831545;-1.2793029901;-3.8267617059;120.88742267;0.1466988;0.2014238;-0.05877397;0.008924958;-0.1063019;-0.1346749;-0.2127359
1584854178;163650;57.709899926;11.927801541;40.581070748;0.02541266;0.1416693;0.007604774;-1.2851986396;-3.8310345366;120.88827278;0.1439305;-0.03581317;0.07450616;0.1012623;0.06847197;0.1610648;0.1598235
1584854178;213611;57.709899883;11.927801558;40.581329857;0.02583048;0.1434078;0.002582704;-1.2794935706;-3.828168266;120.88925281;0.1457155;0.03483179;-0.1034987;0.2348521;-0.06164093;-0.1148746;-0.1972861
1584854178;263701;57.70989984;11.927801575;40.581672342;0.02221777;0.1384806;0.007130033;-1.2850362455;-3.8299219158;120.88932306;0.1402516;-0.05548844;0.0678828;0.03664456;0.0781562;0.18838;0.1981282
1584854178;313652;57.709899796;11.927801591;40.581932393;0.02359366;0.1404028;0.002352049;-1.2779971525;-3.8261403734;120.8893535;0.1423714;0.1555186;-0.1122763;0.1921098;-0.09396777;-0.1112161;-0.2274994
1584854178;363682;57.709899752;11.927801606;40.582312679;0.01829116;0.1347667;0.006684168;-1.2835431408;-3.8301649075;120.88860881;0.1360023;-0.2312479;0.0348006;-0.08082254;0.1092987;0.1879259;0.2300732
1584854178;413773;57.709899708;11.927801622;40.582568459;0.02031257;0.138901;0.004630925;-1.2773406019;-3.8263016417;120.88871736;0.1403784;0.3551244;0.04090865;0.08038376;-0.1439737;-0.1300992;-0.2646341
1584854178;463695;57.709899664;11.927801637;40.582936453;0.01938419;0.1353872;0.004571459;-1.2848405349;-3.8299264857;120.88974247;0.1367678;-0.3283637;-0.1210888;0.2320104;0.1817055;0.1965758;0.2897492
1584854178;513691;57.70989962;11.927801653;40.58316636;0.02074122;0.1364293;0.006402813;-1.278368873;-3.8261211621;120.8899906;0.1379969;0.5778316;0.07543474;0.205368;-0.001700555;-0.1250586;-0.2689317
1584854178;563667;57.709899578;11.927801661;40.583528566;0.0227835;0.1167271;0.003064664;-1.2838162406;-3.8391222099;120.89114698;0.1189298;-0.466319;-0.528379;-0.09249955;0.4405111;0.1242428;0.3661284
1584854178;613818;57.709899541;11.927801655;40.583697659;0.0382589;0.09794424;0.01135486;-1.2785211976;-3.8538631322;120.89237784;0.1051514;0.3928379;-0.1715776;0.0958185;0.4178908;-0.03886766;-0.1008277
1584854178;663625;57.70989951;11.927801629;40.583902584;0.05051704;0.06919803;0.006279211;-1.2823828489;-3.8831113881;120.89392524;0.08567578;-0.5182145;-0.7693179;0.09446568;0.746745;0.07618377;0.3143158
1584854178;713733;57.709899485;11.92780158;40.583957165;0.06471633;0.04490577;0.01175902;-1.2829303236;-3.9068641146;120.8942358;0.07877012;0.09464151;-0.3252102;0.06559972;0.4324563;-0.01633216;-0.1722609
1584854178;763599;57.709899467;11.927801511;40.584115815;0.07908157;0.01740805;0.005252884;-1.289539246;-3.931948942;120.89748284;0.0809749;-0.3740333;-0.6578221;0.08530894;0.7160373;0.0362588;0.2208738
1584854178;813646;57.709899456;11.927801421;40.584233256;0.09458087;-0.005491779;0.01122108;-1.2921242955;-3.9441457765;120.90179301;0.09474017;0.442026;0.05602063;0.1401519;0.4179672;0.04770355;-0.1650193
1584854178;863729;57.709899452;11.927801311;40.584514596;0.1080751;-0.03172318;0.001132232;-1.2958148509;-3.9507898104;120.90721809;0.1126347;-0.3831647;-0.2611098;0.2439137;0.6689584;-0.03185216;0.04202202
1584854178;913639;57.709899454;11.92780118;40.584886603;0.1174254;-0.05794591;0.006542061;-1.299690336;-3.9471055485;120.91092467;0.1309444;0.2306869;0.4004565;-0.123361;0.4691708;0.08360229;-0.0521532
1584854178;963689;57.709899462;11.927801029;40.585448599;0.1327853;-0.0821833;-0.004399324;-1.2993811965;-3.9402225174;120.91611863;0.1561603;-0.207165;-0.00953804;0.1091896;0.6325961;-0.05174447;-0.03297728
1584854179;13647;57.709899481;11.927800859;40.586166468;0.147569;-0.1074121;8.364004e-05;-1.2953557834;-3.9343562951;120.91990937;0.1825211;0.1593779;0.2786284;0.1579859;0.5206199;0.08833195;0.05475289
1584854179;63708;57.709899516;11.927800668;40.587010688;0.1606611;-0.1334745;-0.007053426;-1.2931755796;-3.931269501;120.92361818;0.2088718;-0.05256949;-0.1567824;0.0700947;0.5821172;-0.05847271;-0.02458846
1584854179;113669;57.709899558;11.927800455;40.587872247;0.1746823;-0.1602998;0.0004438382;-1.2962541069;-3.932802346;120.92845389;0.2370864;0.0009677247;0.1989069;0.06439957;0.6195395;0.08114786;0.106193
1584854179;163627;57.709899606;11.927800222;40.588679789;0.189637;-0.1855443;-0.00441883;-1.2936265895;-3.9336516372;120.93327502;0.265309;0.01737722;-0.107681;0.0779441;0.5981241;-0.1110583;-0.03568025
1584854179;213673;57.709899661;11.927799966;40.58950708;0.2041479;-0.2146627;-0.0005775354;-1.2996911373;-3.9400784404;120.93778011;0.2962371;-0.185276;-0.004825041;0.01387638;0.686721;0.09178937;0.09842313
1584854179;263719;57.709899724;11.927799688;40.590266883;0.2212608;-0.243424;-0.005022408;-1.2971739595;-3.9423595155;120.94414172;0.3289553;-0.0575185;-0.215214;0.01266158;0.6804647;-0.07826131;0.004887318
1584854179;313701;57.709899796;11.927799383;40.591125781;0.2410278;-0.2765267;-0.003330209;-1.2994706697;-3.9520279468;120.95343187;0.3668262;0.1793989;-0.1425069;0.07165277;0.6975497;0.0481958;-0.05356836
1584854179;363644;57.709899876;11.92779905;40.592084174;0.2626044;-0.311809;-0.007838332;-1.3026745139;-3.9636010005;120.96389725;0.4076591;-0.4783857;-0.3803062;0.3363572;0.8939937;0.03688379;0.241526
1584854179;413716;57.709899967;11.927798687;40.593099874;0.2836929;-0.3490491;-0.008004992;-1.298898262;-3.9764226299;120.97174869;0.4497965;0.1992825;-0.2452729;0.0815298;0.8305634;-0.05290052;-0.08001466
1584854179;463716;57.709900067;11.927798292;40.594208954;0.307249;-0.3881107;-0.008791628;-1.2977460566;-3.9921195045;120.97979214;0.4950069;0.3280379;-0.2800976;0.2289276;0.9017838;0.04471461;-0.003320251
1584854179;513689;57.709900177;11.927797864;40.595409451;0.3280047;-0.4299457;-0.01189367;-1.3000717274;-4.0071644864;120.98876367;0.5407775;-0.05213885;-0.3193914;0.1628656;0.915508;0.04819985;0.04688445
1584854179;563667;57.709900298;11.927797402;40.596711035;0.3537918;-0.470752;-0.01540639;-1.3016449503;-4.020999221;120.99666414;0.588877;-0.2600743;-0.4341089;0.2959968;1.000722;-0.0005791711;0.1496391
1584854179;613700;57.709900431;11.927796905;40.598089977;0.3790788;-0.513562;-0.01649605;-1.2998902792;-4.0347671691;121.00452071;0.6383154;0.03074685;-0.3716689;0.1592438;1.003477;-0.05329107;0.1195998
1584854179;663777;57.709900576;11.927796372;40.599525742;0.4064881;-0.5590082;-0.01570757;-1.2959313964;-4.0498401955;121.01272718;0.6911749;0.2314997;-0.2726628;0.2268289;1.077647;-0.05544312;0.007672124
1584854179;713646;57.709900733;11.927795799;40.601052318;0.4327644;-0.6078299;-0.01745913;-1.3003598902;-4.066950054;121.02050078;0.7461516;0.111215;-0.2664873;0.2077263;1.137773;-0.00194056;-0.04396062
1584854179;763736;57.709900903;11.927795185;40.602638136;0.4603447;-0.6590092;-0.01782461;-1.3073435767;-4.0832269759;121.02939353;0.8038721;0.1008114;-0.2235971;0.103437;1.155158;-0.05276044;0.009257981
1584854179;813783;57.709901086;11.927794529;40.604263542;0.4926603;-0.7093348;-0.01991884;-1.3111390109;-4.0977477467;121.04055979;0.8636376;0.0801748;-0.2634068;0.2791388;1.184878;-0.01581873;-0.009675802
1584854179;863745;57.709901284;11.927793829;40.605926948;0.5228849;-0.7648579;-0.01860361;-1.3115032305;-4.1120271994;121.04989776;0.9265075;0.2274137;-0.1777167;0.1419733;1.296567;0.003996317;0.04612457
1584854179;913662;57.709901496;11.927793083;40.607614695;0.5557321;-0.821955;-0.02002344;-1.3142402649;-4.1275647206;121.05835184;0.9921936;-0.03043734;-0.2980379;0.186881;1.32906;0.013202;0.135564
1584854179;963793;57.709901724;11.927792287;40.609285078;0.5909553;-0.8828253;-0.01988833;-1.3147669603;-4.1444868419;121.06298243;1.06236;0.2854677;-0.3801545;0.1407808;1.470835;0.006271171;0.1786915
1584854180;13715;57.709901972;11.927791442;40.611019622;0.6245045;-0.9466249;-0.02020308;-1.3068835368;-4.1602806947;121.06577809;1.134066;0.02376713;-0.4094539;-0.02388557;1.495327;0.05967149;0.1065269
1584854180;63606;57.709902247;11.927790544;40.613073075;0.6622297;-1.010876;-0.021151;-1.2980967086;-4.1798429318;121.0689898;1.208478;-0.01044844;-0.4543737;0.1050283;1.500033;0.1132069;0.0903971
1584854180;113760;57.709902539;11.927789591;40.615112008;0.6975948;-1.077728;-0.01957177;-1.2886927412;-4.2001429218;121.07346878;1.283798;0.1566264;-0.31769;-0.1469463;1.485538;0.05409191;0.0659316
1584854180;163638;57.709902849;11.927788584;40.617131691;0.7434922;-1.141766;-0.01909176;-1.2799424505;-4.2194659033;121.08318179;1.362501;0.1685108;-0.3580606;0.3636123;1.591615;-0.07392588;0.1807586
1584854180;213725;57.709903178;11.92778752;40.619115692;0.7825235;-1.210678;-0.01934274;-1.2754976841;-4.2378919838;121.09203182;1.441556;-0.02513475;-0.341858;0.2441622;1.635231;-0.05737382;0.03198935
1584854180;263715;57.709903524;11.927786399;40.621100457;0.8226655;-1.280733;-0.01981203;-1.2828774958;-4.2523128901;121.09757592;1.522187;-0.2505796;-0.2822033;0.004839107;1.575005;-0.04438102;0.04705151
1584854180;313667;57.709903891;11.927785222;40.623106395;0.8695484;-1.347016;-0.01900072;-1.2971640502;-4.2624231384;121.10162886;1.603298;-0.2174964;-0.05088057;0.166206;1.644438;-0.09790745;0.09990534
1584854180;363708;57.709904277;11.927783986;40.6252309;0.9111021;-1.418814;-0.02354179;-1.3210933695;-4.2690983122;121.10363894;1.686161;-0.4090459;-0.08830819;-0.07828431;1.672087;-0.1420034;0.06143589
1584854180;413729;57.709904684;11.927782694;40.627584794;0.9543153;-1.486572;-0.03015987;-1.3586675426;-4.2736824185;121.10920534;1.766526;-0.7819698;-0.142398;0.07352659;1.617427;-0.02708913;0.08984534
1584854180;463696;57.709905109;11.927781343;40.630128442;1.001023;-1.555657;-0.03164002;-1.401670313;-4.2741238925;121.11920342;1.849896;-0.5978678;0.03886958;0.375257;1.684626;-0.01020125;0.0492998
1584854180;513693;57.709905554;11.927779934;40.632878914;1.037779;-1.62891;-0.03949204;-1.4434719139;-4.2747336149;121.12937798;1.931407;-1.019699;-0.1733446;0.02194034;1.668598;-0.02667677;0.07570948
1584854180;563670;57.709906018;11.927778466;40.635772207;1.082972;-1.697751;-0.03852638;-1.48170035;-4.2772056836;121.14048328;2.01375;-0.5250446;-0.06594192;0.2123112;1.680919;-0.167138;-0.009541127
1584854180;613679;57.7099065;11.927776939;40.638766517;1.121862;-1.767827;-0.04242807;-1.5206057278;-4.2846272552;121.15024206;2.09375;-1.098846;-0.3258943;0.370138;1.616765;0.1398943;0.2464685
1584854180;663763;57.709906999;11.927775354;40.641721146;1.160773;-1.83745;-0.03781909;-1.5467746575;-4.2895366166;121.15574587;2.173388;-0.6589083;-0.04660461;0.2041196;1.608379;0.05229663;0.04242188
1584854180;713690;57.709907517;11.927773712;40.644657644;1.198716;-1.906264;-0.04163869;-1.555710961;-4.2947300133;121.16061475;2.251836;-0.2574275;-0.3510738;0.07081626;1.608723;0.1628509;0.1387754
1584854180;763712;57.709908051;11.927772013;40.647516219;1.238845;-1.973109;-0.0366834;-1.5469418991;-4.2966604146;121.16510767;2.329785;0.4761601;-0.00294737;0.224276;1.574265;0.206091;0.2479882
1584854180;813737;57.709908603;11.927770259;40.650349346;1.274276;-2.039579;-0.03992415;-1.5294999998;-4.2916407149;121.16925451;2.404924;0.2510807;0.007962117;0.1005862;1.500677;-0.104044;-0.09694213
1584854180;863705;57.709909171;11.927768448;40.653306903;1.312867;-2.105655;-0.0395554;-1.5268686725;-4.2840208046;121.17151386;2.481411;0.1515812;0.2914018;0.1509489;1.504272;0.0006374831;0.08175968
1584854180;913687;57.709909757;11.927766584;40.656469209;1.353041;-2.169027;-0.04630385;-1.5388211557;-4.2746434505;121.17287964;2.556442;-0.1144534;0.1411261;-0.02296502;1.34502;-0.249401;-0.05289869
1584854180;963763;57.709910362;11.927764668;40.659939603;1.396081;-2.23197;-0.05516739;-1.5592588895;-4.2764873469;121.17511244;2.632629;-0.7713106;-0.3148211;0.1320082;1.529917;-0.009142973;0.06177283
1584854181;13719;57.709910989;11.9277627;40.663649557;1.436584;-2.294143;-0.05433247;-1.5684311698;-4.2792655583;121.17784693;2.706818;-0.1092545;-0.0270304;-0.04670042;1.431162;-0.154495;-0.1071284
1584854181;63732;57.709911638;11.927760676;40.667869885;1.47868;-2.357428;-0.06040289;-1.5973548027;-4.2939166202;121.18671464;2.782798;-0.746321;-0.3606524;0.4565141;1.466425;-0.112848;0.02223375
1584854181;113783;57.709912304;11.927758597;40.672217067;1.515481;-2.424625;-0.06243719;-1.6505383871;-4.3139537449;121.19780305;2.859281;-1.069649;-0.4651749;0.3646363;1.423014;0.1293192;0.1003113
1584854181;163647;57.709912987;11.927756464;40.676588038;1.555301;-2.490862;-0.06205961;-1.691368173;-4.3363213693;121.20870594;2.936555;-0.6211731;-0.4814273;0.2311158;1.444081;0.0677507;0.1333562
1584854181;213687;57.709913689;11.927754276;40.680839667;1.593077;-2.554431;-0.06004596;-1.7116147243;-4.3507976346;121.22039536;3.010484;-0.7479322;-0.2047956;0.4289569;1.40859;0.07724662;-0.01431678
1584854181;263694;57.709914406;11.927752034;40.685187493;1.62597;-2.618833;-0.06358638;-1.7489680621;-4.3545606122;121.23059447;3.082542;-0.9454174;0.02604435;0.3371822;1.420912;0.09115098;-0.04326167
1584854181;313701;57.709915139;11.927749743;40.689911179;1.664253;-2.675045;-0.07325058;-1.795942749;-4.3550496596;121.24207429;3.150493;-0.7424194;0.03021175;0.2744337;1.411343;-0.1571113;-0.0493656
1584854181;363680;57.709915889;11.927747407;40.695007641;1.699964;-2.724475;-0.07696601;-1.8054744289;-4.3527717581;121.24886632;3.21133;0.5447794;0.2810152;0.01595158;1.180088;-0.2545546;-0.07583278
1584854181;413687;57.709916652;11.92774503;40.700371225;1.722429;-2.774163;-0.08277865;-1.8188278346;-4.3536317407;121.25054246;3.265385;-0.7743098;-0.0365285;0.03750638;1.054787;-0.1182301;-0.002044864
1584854181;463805;57.709917425;11.927742616;40.705529184;1.742784;-2.815429;-0.0756623;-1.8838862805;-4.3479406128;121.2571581;3.311183;-1.789023;0.1460561;0.1940853;0.8274335;-0.01017161;0.1578834
1584854181;513713;57.709918209;11.927740172;40.710473766;1.773062;-2.845954;-0.07184141;-1.9591914845;-4.3417539895;121.26589777;3.353089;-0.9758636;0.0904513;0.1273845;0.7487143;-0.1605902;0.01258052
1584854181;563711;57.709919006;11.927737705;40.715256725;1.802395;-2.872972;-0.06850525;-2.0079296199;-4.3396183151;121.27313258;3.391548;-0.7777475;0.01535656;0.4231564;0.7334562;-0.05500736;0.1706714
1584854181;613716;57.709919813;11.927735211;40.719968331;1.81278;-2.909153;-0.07136433;-2.0585852725;-4.3452107737;121.27833142;3.427732;-1.565777;-0.3314215;0.1072996;0.7109815;0.1448823;0.02869213
1584854181;663689;57.709920626;11.927732689;40.724622195;1.829166;-2.942994;-0.06596162;-2.136068173;-4.3578759843;121.29235351;3.465121;-1.251728;-0.2237689;0.3005017;0.8089601;0.1821737;0.007120865
1584854181;713894;57.709921447;11.927730139;40.729238133;1.850601;-2.976514;-0.06540162;-2.196289256;-4.3732308248;121.3064061;3.504905;-0.5512099;-0.2184907;0.269598;0.7863786;-0.0534885;0.001957369
1584854181;763751;57.709922278;11.927727561;40.733914866;1.867795;-3.012727;-0.07224337;-2.2116697223;-4.3944705585;121.32092877;3.544739;-0.6370941;-0.6417333;0.1541362;0.7233651;0.05992493;0.01346279
1584854181;813799;57.709923117;11.927724954;40.738813574;1.885778;-3.048393;-0.07932852;-2.2187511674;-4.4261575002;121.33910664;3.584531;-0.5750408;-0.929323;0.2847347;0.7897624;-0.02049986;-0.005348826
1584854181;863703;57.709923964;11.927722317;40.74395896;1.909218;-3.080097;-0.07679337;-2.225675004;-4.4613644961;121.36182105;3.623826;0.4451869;-0.5535582;0.5740185;0.8682967;-0.1242826;0.01566961
1584854181;913710;57.70992482;11.927719654;40.749210167;1.927002;-3.109473;-0.0828284;-2.2273701186;-4.4880982953;121.38219414;3.658164;0.009343107;-0.4927799;0.4202254;0.6818959;-0.1808384;-0.1111669
1584854181;963835;57.709925686;11.927716969;40.75478136;1.949188;-3.133196;-0.09110598;-2.235144199;-4.5106169101;121.40497261;3.69002;0.02389834;-0.4217922;0.4591057;0.6608979;-0.1152639;-0.08735663
1584854182;13675;57.709926561;11.927714265;40.760934538;1.96986;-3.1543;-0.0954871;-2.2431874651;-4.5259472437;121.42831756;3.718865;0.01355208;-0.1523;0.4253003;0.5405838;-0.2555622;-0.1504914
1584854182;63711;57.709927446;11.92771154;40.767692402;1.98943;-3.169305;-0.0964119;-2.280789952;-4.5330357379;121.46093411;3.741969;-1.221563;-0.08813197;0.9398137;0.2684412;-0.1052782;0.05421444
1584854182;113706;57.709928337;11.927708808;40.774267594;2.003432;-3.174928;-0.0940783;-2.3503642851;-4.5161920743;121.50340212;3.754186;-1.434816;0.4059325;1.108975;0.3897039;-0.08772754;-0.02128425
1584854182;163698;57.709929238;11.927706067;40.780715411;2.027076;-3.190241;-0.08780083;-2.3955020201;-4.482311696;121.55446886;3.779772;-0.1626753;0.8366292;1.058706;0.3549908;-0.06422385;-0.001541151
1584854182;213756;57.709930147;11.927703313;40.787157358;2.041582;-3.21296;-0.0928999;-2.4119384639;-4.4493719576;121.60929339;3.806727;-0.2827896;0.4743709;1.188539;0.5797733;0.1107719;0.01152793
1584854182;263770;57.709931064;11.927700537;40.793662071;2.056597;-3.243785;-0.09331129;-2.4544060519;-4.4282736678;121.67950107;3.840798;-1.15298;0.166129;1.359957;0.6428897;-0.07199543;-0.02122852
1584854182;313732;57.709931989;11.927697739;40.800368758;2.082126;-3.262539;-0.09825919;-2.4986411909;-4.4286605218;121.76474965;3.870325;-0.6111459;-0.1480036;1.717183;0.7261683;-0.1069125;0.118106
1584854182;363711;57.709932929;11.927694928;40.807284915;2.119572;-3.277888;-0.1012657;-2.4833072998;-4.4385908525;121.86296236;3.903477;1.00413;-0.2279322;2.160179;0.6389509;-0.2080407;-0.02829525
1584854182;413695;57.709933883;11.927692102;40.814280532;2.144945;-3.293084;-0.1047039;-2.4480732897;-4.4507225309;121.98657746;3.930037;0.4542133;-0.4624197;2.779953;0.4875256;-0.1039341;0.0599014
1584854182;463745;57.709934849;11.927689262;40.82118185;2.176949;-3.313482;-0.09446345;-2.4291624545;-4.4620813636;122.14003773;3.964627;0.8768071;-0.08669044;3.367733;0.622465;-0.263443;0.02941274
1584854182;513680;57.709935829;11.92768641;40.828031083;2.209725;-3.323406;-0.1017686;-2.4232624439;-4.4782958587;122.3238086;3.990978;0.2923436;-0.6021806;3.901553;0.5856131;-0.4637797;0.02866596
1584854182;563696;57.709936826;11.927683552;40.835025904;2.249266;-3.329096;-0.1094178;-2.4170843572;-4.4951060833;122.52716611;4.017721;0.5776595;-0.7262866;4.207785;0.4625319;-0.5046123;-0.247778
1584854182;613744;57.709937841;11.927680689;40.842493867;2.288095;-3.333725;-0.1151372;-2.4009506762;-4.5208245313;122.74731731;4.043402;0.7756125;-0.6948466;4.545608;0.4060865;-0.5233413;-0.06148356
1584854182;663686;57.709938872;11.927677821;40.850417367;2.316885;-3.346213;-0.1230323;-2.3989333845;-4.5596082084;122.98291587;4.070024;0.1763813;-0.8850265;4.592794;0.5091189;-0.3804041;-0.1723443
1584854182;713713;57.709939917;11.927674948;40.858630346;2.350195;-3.344912;-0.1310566;-2.4112925871;-4.5960000523;123.23735253;4.088013;0.4041983;-0.8984857;5.128906;0.3056864;-0.4615432;-0.1308932
1584854182;763748;57.709940975;11.927672078;40.866956301;2.380966;-3.34358;-0.1306697;-2.4161423306;-4.6098182402;123.50816004;4.104696;0.3799261;-0.4647313;5.548594;0.5346034;-0.4041017;0.04997189
1584854182;813732;57.709942048;11.927669208;40.874997485;2.412514;-3.340672;-0.1183117;-2.41876431;-4.6083718185;123.79607661;4.120718;0.7396359;-0.1118325;5.990844;0.2825741;-0.443643;0.1972337
1584854182;863687;57.709943134;11.92766634;40.882484324;2.444144;-3.338901;-0.1048642;-2.4226518446;-4.6010007371;124.10510361;4.137887;0.8269866;0.1488659;6.406327;0.310239;-0.3978318;0.1477005
1584854182;913727;57.709944236;11.927663476;40.889524182;2.478864;-3.333404;-0.1009543;-2.4063896598;-4.5932033546;124.4339924;4.154077;1.083749;-0.1626097;6.810533;0.1897155;-0.5410656;0.09548623
1584854182;963813;57.709945353;11.927660616;40.896349629;2.511163;-3.329286;-0.09871618;-2.3726577811;-4.5937076468;124.78284528;4.170142;1.45359;-0.3427408;7.061221;0.1804587;-0.4305442;0.1421276
1584854183;13621;57.709946485;11.92765776;40.903120691;2.544352;-3.321486;-0.09988949;-2.3143857357;-4.5951766193;125.14863496;4.184017;1.990069;-0.4118177;7.456979;0.2038011;-0.5502981;-0.02078503
1584854183;63775;57.709947634;11.927654901;40.910207727;2.577639;-3.313293;-0.1070293;-2.2620083666;-4.6069350729;125.53201279;4.197873;1.485573;-0.677055;7.732979;0.1916959;-0.7696058;-0.05587604
1584854183;113674;57.7099488;11.927652052;40.917575094;2.618892;-3.298906;-0.1125555;-2.2322293452;-4.6288559332;125.93361087;4.212052;0.9245391;-0.8835549;8.156126;0.3532163;-0.9009773;-0.004311985
1584854183;163672;57.709949986;11.927649219;40.925126997;2.665931;-3.278241;-0.1148359;-2.2118516674;-4.6567940575;126.35958313;4.225405;1.110203;-0.9256756;8.733249;0.1976258;-0.7696667;-0.1236778
1584854183;213725;57.709951192;11.927646403;40.933008048;2.711092;-3.257206;-0.125164;-2.2012792433;-4.6900920393;126.80851152;4.237855;0.8209457;-1.101215;9.309248;0.2265523;-0.7772357;-0.1916438
1584854183;263729;57.709952418;11.927643606;40.941377108;2.753448;-3.235287;-0.1316121;-2.1981308088;-4.7253475542;127.28422034;4.248359;1.035671;-0.8495965;9.632277;0.1918152;-0.8707879;-0.2770216
1584854183;313767;57.709953663;11.927640828;40.950270394;2.790462;-3.214455;-0.1454227;-2.2183547362;-4.7559301445;127.78552526;4.256689;-0.1884275;-0.8562098;10.06369;0.03127886;-0.8702154;-0.3454382
1584854183;363672;57.709954926;11.927638069;40.959559447;2.836957;-3.189228;-0.1497293;-2.2652338542;-4.7757224867;128.31298068;4.268431;-0.1326274;-0.6537892;10.64579;0.2167897;-0.9912023;-0.1931052
1584854183;413687;57.70995621;11.927635333;40.968882469;2.884645;-3.161237;-0.1497825;-2.2949141038;-4.7797302493;128.86436111;4.279555;0.2241911;-0.5272273;11.10649;0.2605226;-0.9546878;-0.07291934
1584854183;463748;57.709957517;11.927632621;40.977955817;2.935319;-3.132327;-0.1415451;-2.2978069492;-4.7718505558;129.44334557;4.292735;1.111886;-0.3162459;11.85401;0.1674359;-0.9393658;0.08887268
1584854183;513804;57.709958844;11.927629932;40.986502451;2.979159;-3.10863;-0.1265891;-2.3023285832;-4.7538459815;130.05553322;4.30569;1.042071;-0.03996009;12.3867;0.1620825;-0.7884926;0.1490269
1584854183;563750;57.709960193;11.927627263;40.994495202;3.02857;-3.080938;-0.1136536;-2.3271300331;-4.734819615;130.69705824;4.320233;0.6302956;0.03228325;13.08174;0.09571823;-0.9869487;0.2379338
1584854183;613740;57.709961564;11.92762462;41.002042172;3.083488;-3.050333;-0.1104972;-2.3596209925;-4.7256837016;131.35677551;4.33733;0.3957355;-0.5651432;13.30541;0.1992136;-1.152652;0.1903123
1584854183;663754;57.70996296;11.927622004;41.009222967;3.136137;-3.018955;-0.1065778;-2.3714886253;-4.7278024482;132.02472049;4.353096;0.8062765;-0.9119933;13.40844;0.1815899;-1.059501;0.01961506
1584854183;713721;57.709964378;11.927619412;41.016114722;3.179153;-2.9973;-0.1009014;-2.3567964159;-4.7302330938;132.69513503;4.369305;1.097666;-0.6923854;13.15573;0.2078983;-0.8852297;-0.008904793
1584854183;763782;57.709965815;11.927616837;41.022888134;3.219069;-2.97776;-0.1005137;-2.3351882067;-4.7212948864;133.36089527;4.385141;1.217604;-0.3474149;13.2285;0.2869988;-0.7250668;0.009455491
1584854183;813689;57.70996727;11.927614279;41.029690742;3.25956;-2.955867;-0.1001773;-2.3060332803;-4.6967338092;134.02294901;4.400214;1.358144;0.05969865;13.06212;0.2690641;-0.961467;-0.1002076
1584854183;863777;57.709968743;11.927611742;41.036716843;3.304285;-2.927117;-0.1088833;-2.2836481467;-4.6668907623;134.67932445;4.41433;1.260116;0.05484639;13.20602;0.1382683;-1.089095;-0.3924522
1584854183;913777;57.709970235;11.92760923;41.044376941;3.347563;-2.894636;-0.1259478;-2.2739414116;-4.6424660087;135.33602813;4.425505;1.021165;-0.2648223;13.13849;0.2151907;-0.9718108;-0.1881911
1584854183;963799;57.709971749;11.927606749;41.052622464;3.391572;-2.859634;-0.1367278;-2.2662114254;-4.6099689631;135.99736345;4.436244;0.7154758;0.0527597;13.1737;0.04258406;-1.003875;-0.2899463
1584854184;13639;57.709973269;11.927604273;41.061432205;3.434558;-2.82613;-0.1500984;-2.2573119388;-4.5752942517;136.66027309;4.447831;0.1819964;-0.09028105;13.27003;0.1051448;-1.013186;-0.2307673
1584854184;63701;57.709974778;11.927601762;41.070411328;3.479246;-2.796163;-0.1481694;-2.2935322037;-4.5396991301;137.32792744;4.463595;0.2592462;0.1100825;13.29371;0.4177765;-1.370524;0.07637033
1584854184;113774;57.709976307;11.92759928;41.079164099;3.52444;-2.762543;-0.1406831;-2.3313728502;-4.4966227857;137.9889978;4.478093;0.4906887;0.3566032;13.17422;0.2286918;-1.236672;-0.004273762
1584854184;163695;57.709977857;11.927596827;41.087648845;3.570529;-2.727044;-0.1362426;-2.3226972428;-4.4636561235;138.64921291;4.492822;1.865198;-0.1982988;13.31795;0.2884771;-0.8681589;0.3409681
1584854184;213697;57.709979426;11.927594397;41.095528137;3.608352;-2.705038;-0.1191687;-2.2814046579;-4.4439161057;139.30115183;4.509704;1.994666;-0.2129031;13.17332;0.1612796;-0.9699979;0.2011089
1584854184;263699;57.709981013;11.927591989;41.103077326;3.646852;-2.677705;-0.1148198;-2.2562716934;-4.4486799787;139.96643874;4.524338;1.916784;-0.6555856;13.47495;0.2316372;-1.07693;0.2772653
1584854184;313750;57.709982618;11.927589606;41.110621299;3.684301;-2.648573;-0.121629;-2.2171743881;-4.4869472292;140.63814219;4.537512;1.852953;-1.576593;13.35838;-0.004114228;-1.021373;-0.08737047
1584854184;363682;57.709984241;11.927587254;41.11849512;3.727839;-2.615078;-0.1302744;-2.1482915595;-4.5632535741;141.31698261;4.553616;2.708543;-2.33033;13.48533;0.2935921;-1.008533;0.1043803
1584854184;413781;57.709985883;11.927584928;41.126518876;3.764448;-2.585198;-0.1327597;-2.0643433127;-4.6531607539;141.99946944;4.566653;2.703007;-2.562163;13.39869;0.2862625;-0.9348372;0.04650671
1584854184;463807;57.709987543;11.927582631;41.134298928;3.806916;-2.549139;-0.1197862;-1.9812725418;-4.7318474988;142.68330503;4.581563;2.637597;-1.752515;13.65184;0.2686116;-1.108643;0.03828575
1584854184;513721;57.709989221;11.927580362;41.141707224;3.842436;-2.51711;-0.1128117;-1.937614329;-4.7871755607;143.36175964;4.59349;0.8900491;-1.141065;13.35567;0.2595725;-1.12559;-0.09817251
1584854184;563720;57.709990917;11.927578131;41.148620416;3.885261;-2.470675;-0.1071419;-1.9368510484;-4.7856831553;144.04177932;4.60429;0.7681518;-0.1602695;13.32557;0.4532997;-1.226321;-0.1066776
1584854184;613730;57.709992634;11.92757594;41.155249097;3.930542;-2.424161;-0.1041839;-1.9390309677;-4.7369183457;144.72020108;4.617978;0.5858734;0.5247785;13.37165;0.1553615;-1.163198;-0.1269778
1584854184;663733;57.70999437;11.927573784;41.161759398;3.972801;-2.38542;-0.09904465;-1.9620509781;-4.66270029;145.39516098;4.633938;0.4255717;1.265608;13.44935;0.4503161;-1.020639;-0.02976025
1584854184;713716;57.709996126;11.92757166;41.168017989;4.01774;-2.349354;-0.08922368;-2.0053891353;-4.5572287288;146.07568744;4.654212;0.2063568;1.902456;13.65683;0.2604961;-0.9605135;0.1403133
1584854184;763693;57.709997902;11.927569567;41.173899221;4.058607;-2.316066;-0.08800107;-2.0288191524;-4.4457182765;146.75733761;4.672949;0.2208032;1.494821;13.66685;0.3300634;-0.862211;0.1531098
1584854184;813775;57.709999697;11.927567502;41.17962199;4.10039;-2.279502;-0.08000983;-2.0272198959;-4.3377132685;147.44216982;4.69141;1.97075;1.953391;13.61723;0.2213809;-1.158839;0.02107871
1584854184;863766;57.71000151;11.927565467;41.185564888;4.138489;-2.250817;-0.09449838;-1.972348121;-4.2385146907;148.11921018;4.710973;2.31845;1.23208;13.38158;0.4278466;-0.8241292;-0.239726
1584854184;913723;57.710003339;11.927563458;41.19189424;4.17198;-2.219973;-0.09807508;-1.8747623961;-4.1492297707;148.7915787;4.725854;3.03056;1.6358;13.46306;0.3076354;-0.742839;-0.1543646
1584854184;963733;57.710005184;11.927561475;41.198749735;4.205158;-2.1862;-0.1095787;-1.7845290109;-4.0452903854;149.46026824;4.739496;3.053657;2.013314;13.40714;0.1711194;-1.084758;-0.374248
1584854185;13767;57.710007046;11.927559472;41.20591987;4.243075;-2.1447;-0.1223281;-1.6700567696;-3.9248615584;150.12449711;4.754306;2.516323;1.792348;13.29694;0.2298248;-1.156209;-0.03866949
1584854185;63761;57.710008929;11.927557374;41.213102283;4.289036;-2.103019;-0.1198623;-1.5714987283;-3.8049427561;150.78845087;4.776873;2.654032;1.762113;13.35468;0.5056124;-1.165469;0.3310563
1584854185;113712;57.710010833;11.927555314;41.220075408;4.336859;-2.056859;-0.1077046;-1.4906922717;-3.6972079193;151.45890462;4.799897;2.613164;1.81758;13.65409;0.479145;-1.425573;0.2325075
1584854185;163739;57.710012759;11.927553291;41.226608916;4.383842;-2.016769;-0.09765003;-1.4501767872;-3.6162566659;152.13421983;4.825497;1.392229;1.133383;13.67161;0.2485147;-1.362317;0.4668887
1584854185;213712;57.710014707;11.927551304;41.232305997;4.434588;-1.978823;-0.07945585;-1.43940449;-3.559576464;152.80925993;4.85606;0.356727;0.5602916;13.59274;0.4817696;-1.319;0.5831791
1584854185;263747;57.710016677;11.927549353;41.236904355;4.480708;-1.940759;-0.06003638;-1.456084967;-3.5136105546;153.48257001;4.882959;0.2098651;0.3781477;13.32096;0.529588;-1.191829;0.3644522
1584854185;313683;57.71001867;11.927547435;41.240521524;4.530512;-1.905146;-0.03849484;-1.4861297324;-3.4733929986;154.14550241;4.914786;-0.3649363;0.1815191;13.20833;0.6278065;-1.145469;0.5480384
1584854185;363756;57.710020685;11.927545547;41.242921797;4.579862;-1.870597;-0.01034434;-1.554725489;-3.4428997854;154.80469537;4.947147;-1.094664;0.3421709;13.16578;0.6096031;-1.238243;0.1869206
1584854185;413741;57.710022722;11.927543692;41.244357572;4.629268;-1.827967;0.007881563;-1.6545077409;-3.4172095516;155.46055017;4.977106;-0.5352569;0.5286492;12.94278;0.5575985;-1.331326;0.3134926
1584854185;463739;57.710024783;11.927541879;41.245325844;4.677783;-1.783586;-5.960159e-05;-1.7117151847;-3.3808488089;156.11308336;5.006279;-0.1657277;0.1415461;13.16762;0.4847107;-0.9568638;-0.1417703
1584854185;513783;57.710026864;11.927540102;41.246428675;4.723124;-1.746968;-9.635214e-05;-1.7302001995;-3.3287249353;156.77833814;5.035851;0.5613468;0.8052078;13.38339;0.4366202;-1.014851;-0.2713879
1584854185;563731;57.710028966;11.927538357;41.247877637;4.769029;-1.71461;-0.007886179;-1.7257925538;-3.2694185859;157.46264855;5.067892;0.8296907;0.7263219;13.66704;0.7066455;-0.9723996;-0.1478166
1584854185;613720;57.710031089;11.927536645;41.249498257;4.816468;-1.666987;-0.008044847;-1.6814276408;-3.1976111988;158.15996632;5.096784;2.538349;1.338523;14.10717;0.5458546;-1.319158;-0.1503288
1584854185;663750;57.710033234;11.927534973;41.251289623;4.865128;-1.618489;-0.01739706;-1.6195681279;-3.1052071015;158.86445985;5.127278;1.792654;1.283795;14.27531;0.3664463;-1.526451;-0.1187909
1584854185;713725;57.710035401;11.927533348;41.253099275;4.915819;-1.566973;-0.0134982;-1.5736213519;-2.9967779938;159.57441131;5.159523;1.347254;1.63913;14.35672;0.9061967;-1.255169;0.262393
1584854185;763717;57.710037592;11.927531773;41.254669042;4.966268;-1.504651;0.0009844117;-1.4961023893;-2.86938466;160.28710403;5.1892;2.561426;2.651712;14.4202;0.6994812;-1.297396;0.2874139
1584854185;813733;57.710039805;11.927530247;41.255954805;5.015781;-1.453202;0.001764063;-1.4457042344;-2.7445305455;161.00558734;5.222055;1.374141;2.134311;14.56725;0.7943411;-1.248819;0.406966
1584854185;863689;57.710042043;11.927528771;41.256973695;5.068161;-1.392165;0.01004031;-1.4065883866;-2.631937768;161.74187261;5.25589;1.648073;2.148014;14.8128;0.7138423;-1.640887;-0.01380078
1584854185;913756;57.710044303;11.927527347;41.257946954;5.118055;-1.328294;0.006440455;-1.403373154;-2.5434518759;162.49667332;5.287613;1.08704;1.251954;15.0799;0.3672726;-1.785377;0.02434339
1584854185;963735;57.710046587;11.927525982;41.258907598;5.172887;-1.266481;0.002262847;-1.3955806245;-2.4956335046;163.26490627;5.325667;0.6337932;-0.07757946;15.35028;0.5551562;-1.271375;0.3101597
1584854186;13665;57.710048908;11.927524648;41.25895609;5.228759;-1.197266;0.02132274;-1.3503854701;-2.4756367039;164.04314447;5.364081;0.9843353;-0.1833531;15.90086;0.5934584;-1.378969;0.3311529
1584854186;63900;57.710051281;11.927523309;41.257448209;5.280907;-1.137579;0.03447127;-1.3385634344;-2.4736819548;164.83976374;5.402043;-0.01926574;-0.5302602;16.01786;0.6325849;-1.404743;0.520781
1584854186;113777;57.710053677;11.927522028;41.255259342;5.332599;-1.061907;0.04296396;-1.3546255454;-2.4811727855;165.65409364;5.437303;0.4439417;-0.746674;16.39195;0.5549573;-1.781063;0.327686
1584854186;163823;57.710056096;11.927520813;41.252691179;5.384828;-0.985051;0.05406031;-1.3368502878;-2.4880563749;166.48941304;5.474185;1.312434;-0.2544686;17.05929;0.6639431;-1.43545;0.2653929
1584854186;213708;57.710058537;11.927519662;41.249903592;5.430103;-0.9113355;0.05787843;-1.3058160413;-2.4894123504;167.34529893;5.506047;1.504232;-0.01979456;17.27218;0.4961583;-2.04517;-0.2914154
1584854186;263859;57.710060999;11.927518577;41.246982324;5.479464;-0.8325325;0.05860158;-1.3081971663;-2.4839871404;168.22842876;5.542349;0.7997462;-0.2067835;17.8383;0.6628224;-1.815856;0.3210078
1584854186;313714;57.710063484;11.927517564;41.243646066;5.529514;-0.7430297;0.06744976;-1.2993157602;-2.4515897467;169.12869922;5.579213;1.25195;0.4864911;18.38292;0.6632311;-1.696662;0.001811748
1584854186;363686;57.71006599;11.927516626;41.239724139;5.575884;-0.6618369;0.08410855;-1.2791482748;-2.3942870635;170.03691878;5.615026;0.961889;1.062654;18.22106;0.2996508;-1.681468;0.03562107
1584854186;413732;57.710068519;11.927515762;41.235091078;5.628936;-0.5730221;0.1048789;-1.2713430243;-2.3186433281;170.95704959;5.658028;1.327974;1.58348;18.45536;0.6901119;-1.89538;0.463633
1584854186;463763;57.71007107;11.927514974;41.229459949;5.675453;-0.4837794;0.1170834;-1.2462193805;-2.2295287124;171.88099202;5.696034;1.634882;1.525806;18.51045;0.3836153;-2.278264;-0.4270706
1584854186;513702;57.710073642;11.927514264;41.22357156;5.721719;-0.4003464;0.1069728;-1.2215801559;-2.1419708312;172.81602277;5.735708;0.3780728;0.7018634;18.66512;0.4637968;-1.677125;0.1092544
1584854186;563735;57.710076234;11.927513627;41.217637548;5.768241;-0.31618;0.1118826;-1.1942501248;-2.048541333;173.75739877;5.7769;-0.1157346;1.16285;18.9352;0.8765061;-1.438842;0.2966513
1584854186;613717;57.710078846;11.927513067;41.211793527;5.810086;-0.2189551;0.113218;-1.1910162205;-1.9484657914;174.70790728;5.81421;0.2296858;1.821355;19.16096;0.7248191;-1.805952;-0.4307678
1584854186;663718;57.710081477;11.927512589;41.206491154;5.84886;-0.1192556;0.1042967;-1.2110127194;-1.8500173067;175.6604944;5.850075;0.7662202;2.022251;19.05606;0.6880989;-2.075966;-0.1510129
1584854186;713742;57.710084126;11.927512199;41.201618704;5.889527;-0.01615884;0.0891711;-1.2351481217;-1.7547196122;176.61648188;5.889549;-0.2280761;1.242078;19.25653;0.4197757;-2.019405;-0.08353616
1584854186;763759;57.710086793;11.927511898;41.196840981;5.933509;0.08391313;0.09635171;-1.2410222024;-1.6757347075;177.57689321;5.934102;0.1616444;0.9014301;19.51915;0.8033966;-1.664037;0.5059333
1584854186;813726;57.710089479;11.927511678;41.191551534;5.969588;0.1781395;0.1117822;-1.239993237;-1.6009253014;178.54209661;5.972245;0.436579;1.337949;19.52523;0.6345724;-2.014088;0.005128701
1584854186;863736;57.710092181;11.927511543;41.185780155;6.011514;0.2779346;0.1178226;-1.2620800984;-1.5356219239;179.51843902;6.017935;0.1893;0.3404417;19.45072;0.7146031;-1.971444;0.6057132
1584854186;913715;57.710094902;11.927511498;41.178980206;6.04991;0.3859274;0.1470454;-1.2347960662;-1.4923924979;180.4958109;6.062207;1.891257;0.3675742;19.72926;0.6101574;-1.931201;0.4286082
1584854186;963883;57.71009764;11.927511539;41.171332508;6.089215;0.4860823;0.1595463;-1.1949034979;-1.4740721623;181.48028175;6.108586;1.127531;-0.2532691;19.90053;0.7756135;-1.944651;0.4705897
1584854187;13648;57.710100405;11.927511651;41.163407146;6.12358;0.5871509;0.1672493;-1.125898541;-1.4696268364;182.47205503;6.151665;1.4397;-0.5037566;19.77326;0.8777806;-1.930396;0.3878286
1584854187;63987;57.71010321;11.927511801;41.155953866;6.154672;0.69726;0.1786453;-1.0719707189;-1.4708355374;183.46928854;6.194042;1.749941;-0.2037136;19.9975;0.90256;-2.06141;0.2101142
1584854187;113768;57.710106029;11.927512048;41.148264941;6.182652;0.8142665;0.1794627;-1.004199164;-1.4707479193;184.47660302;6.236042;2.232836;-0.2432828;20.32046;0.5866684;-2.316994;0.0004851323
1584854187;163778;57.710108861;11.92751239;41.140821701;6.211182;0.9218485;0.1680635;-0.95538383886;-1.4772483067;185.48382934;6.279219;1.11092;-0.4679401;20.03098;0.7423679;-2.421054;-0.1245581
1584854187;213716;57.710111704;11.927512835;41.13354225;6.236846;1.044237;0.1710022;-0.92682762161;-1.4824441876;186.50771019;6.32366;0.9934494;-0.300607;20.50793;0.4424152;-2.369571;-0.3217339
1584854187;263706;57.710114559;11.927513381;41.126269335;6.263581;1.165878;0.1659006;-0.9050838638;-1.4878492916;187.53499258;6.371163;0.7486331;-0.613685;20.71699;0.7993801;-2.356997;-0.1811366
1584854187;313797;57.710117425;11.92751403;41.119143531;6.289492;1.280869;0.1586603;-0.88654931975;-1.492986074;188.56647235;6.418593;0.6124939;-0.8516489;20.54556;1.027806;-2.309458;-0.1333729
1584854187;363691;57.7101203;11.927514778;41.112023745;6.309376;1.396668;0.1671928;-0.87974539506;-1.4905186374;189.5930969;6.462113;1.023135;-0.1599154;20.30145;0.8836613;-2.474829;0.1221731
1584854187;413795;57.710123186;11.927515628;41.104728552;6.329342;1.518843;0.1717531;-0.86589027852;-1.4785601281;190.61429348;6.509028;1.215755;0.02509862;20.43953;0.7332988;-2.398341;-0.1267762
1584854187;463784;57.710126081;11.927516577;41.097241055;6.355692;1.629108;0.1833639;-0.85274007312;-1.4709864742;191.62589712;6.561159;0.6825901;0.007149695;20.24513;1.021832;-1.918558;0.6973555
1584854187;513697;57.710128986;11.927517623;41.089092941;6.37999;1.746328;0.1853201;-0.84748309537;-1.4523390777;192.62812236;6.614675;0.43982;-0.2425245;20.03279;0.9599727;-2.34496;-0.1896898
1584854187;563736;57.710131904;11.927518768;41.080756007;6.406765;1.856324;0.1934468;-0.83514117056;-1.4516845255;193.60956543;6.670276;0.9851719;-0.3704566;19.20629;1.118842;-2.321495;0.3398349
1584854187;613826;57.710134831;11.927520008;41.072163843;6.42818;1.965587;0.1934191;-0.8451061319;-1.4498428049;194.57167124;6.721981;-0.4812101;-0.3658299;18.98959;0.8786333;-2.353848;-0.1182708
1584854187;663785;57.710137769;11.927521344;41.0634494;6.452279;2.080861;0.1963827;-0.91879087319;-1.4646955769;195.51923993;6.77952;-0.8013167;-1.02298;18.682;1.262483;-2.098634;0.3895111
1584854187;713776;57.710140716;11.92752278;41.054323414;6.466591;2.198136;0.2099748;-0.9376230156;-1.474987009;196.43279065;6.829978;0.5639435;-0.2017667;18.1269;0.762668;-2.202566;-0.08712732
1584854187;763791;57.710143669;11.927524308;41.045323519;6.484693;2.293713;0.1984789;-0.91542277246;-1.4861217393;197.31488187;6.878398;0.7048349;-0.6682636;17.25949;0.7744239;-1.68897;-0.3145249
1584854187;813767;57.71014663;11.927525917;41.036448335;6.500084;2.384199;0.1990275;-0.9109668785;-1.494301485;198.17130551;6.923546;0.2167027;-0.4439841;16.83794;0.6682822;-1.955041;-0.07161903
1584854187;863795;57.710149595;11.927527608;41.027508824;6.510191;2.485396;0.1957797;-0.9276320675;-1.4880119229;199.01297556;6.968485;-0.2003728;-0.371045;16.68725;0.9325678;-2.052371;-0.3588197
1584854187;913736;57.710152565;11.927529384;41.018488443;6.522422;2.581587;0.2052194;-0.91629897213;-1.4668516407;199.83111294;7.01474;0.742606;0.2368176;15.99666;1.041273;-1.957418;0.2387604
1584854187;963818;57.71015554;11.927531248;41.009412529;6.528313;2.688483;0.2034079;-0.89717240872;-1.4364409904;200.63648546;7.060227;1.070014;0.5473986;16.01241;0.7670851;-1.730246;-0.1097093
1584854188;13668;57.710158533;11.927533177;41.001070967;6.541202;2.784441;0.1855397;-0.8420181419;-1.4163385569;201.42016613;7.109179;0.075146;-0.2307845;15.49719;0.8858157;-1.925847;-0.2963314
1584854188;63731;57.710161568;11.927535137;40.993439233;6.548628;2.885089;0.1989192;-0.8374799342;-1.407207929;202.19039925;7.155995;0.08482878;-0.1562714;15.10254;0.7865347;-1.999318;0.3363213
1584854188;113788;57.710164605;11.927537182;40.985665523;6.553576;2.982459;0.1997574;-0.83712128917;-1.4151703104;202.94413474;7.200307;0.1323388;-0.3833262;14.82843;0.7025724;-1.840469;0.1218532
1584854188;163700;57.710167641;11.927539308;40.977765388;6.553958;3.07747;0.2009399;-0.83140696498;-1.4157797009;203.68500424;7.240524;0.7490208;-0.1342211;14.74595;0.7170177;-1.638827;0.1028512
1584854188;213767;57.71017068;11.927541512;40.969922929;6.561029;3.164864;0.1970516;-0.84406250756;-1.4085261021;204.41439261;7.284468;-0.2760978;-0.1665511;14.59544;0.9881962;-1.794845;-0.05089549
1584854188;263732;57.710173722;11.927543793;40.96196777;6.569419;3.254735;0.1966867;-0.89412926743;-1.4075511525;205.12214381;7.331478;-1.406617;-0.7783455;13.83958;0.9725581;-1.85216;0.3233062
1584854188;313717;57.710176765;11.927546156;40.953792198;6.57263;3.351769;0.2139254;-0.93554596439;-1.4202154372;205.80663799;7.377928;-0.1440082;-0.1155223;13.48728;0.8859246;-1.598945;0.3863206
1584854188;363774;57.71017981;11.927548598;40.945431181;6.574636;3.438123;0.209704;-0.96654287822;-1.4299129208;206.45754237;7.419335;-0.4127572;-0.1127626;12.76401;0.7341728;-1.865171;-0.3534413
1584854188;413737;57.710182856;11.927551111;40.937207072;6.583632;3.511745;0.2066986;-1.0293264259;-1.4394188307;207.084196;7.461673;-1.601223;-0.3140558;12.16879;0.7202102;-1.50874;0.2721012
1584854188;463804;57.710185903;11.927553691;40.928933026;6.586603;3.591317;0.2062965;-1.1215593537;-1.4396744664;207.69371249;7.502059;-1.728716;-0.1623417;11.7656;0.9073043;-1.528431;-0.2564779
1584854188;513758;57.710188951;11.927556341;40.920664267;6.588027;3.672261;0.2052075;-1.2026162347;-1.4300474214;208.27747592;7.542387;-1.287622;-0.08013684;11.30341;0.5982937;-1.541298;0.05077846
1584854188;563779;57.710192;11.927559057;40.912516539;6.59262;3.747672;0.1991636;-1.2643898034;-1.426552218;208.83273496;7.583382;-1.270616;-0.478363;10.93714;1.078868;-1.269652;0.1331065
1584854188;613750;57.710195049;11.927561837;40.904425021;6.589104;3.820824;0.2036873;-1.3045194253;-1.4208861807;209.37063264;7.616757;0.1258002;0.06084553;10.52109;0.6803234;-1.518676;-0.0970818
1584854188;663733;57.710198096;11.927564679;40.896572199;6.584877;3.888174;0.1936358;-1.3075617758;-1.4211327607;209.88994872;7.647123;0.4497841;-0.3806794;10.40995;0.5867858;-1.247995;-0.1237472
1584854188;713771;57.710201141;11.927567577;40.888870345;6.582376;3.94971;0.1952777;-1.3001518598;-1.4260596628;210.4024633;7.67645;0.3551224;-0.2605825;10.20198;0.5046196;-1.396024;0.03176866
1584854188;763849;57.710204186;11.927570529;40.881574444;6.582311;4.011685;0.1764992;-1.3065557342;-1.4518076733;210.90559665;7.708466;-0.3747724;-1.073461;10.00171;0.53679;-1.137276;-0.2075889
1584854188;813739;57.71020723;11.927573537;40.874834977;6.586917;4.07513;0.1736519;-1.3514725386;-1.5044288013;211.39285444;7.74559;-2.021495;-1.435037;9.621837;0.4896166;-1.355876;-0.06534709
1584854188;863707;57.710210272;11.927576607;40.86831038;6.581553;4.154769;0.1694843;-1.4306844549;-1.5749368179;211.86497215;7.783248;-0.8322882;-1.967986;9.218541;1.00009;-1.250226;0.2816692
1584854188;913768;57.710213312;11.927579743;40.861438685;6.575262;4.226076;0.179527;-1.4395376333;-1.6468291822;212.30957287;7.816251;0.1809303;-1.611727;8.828712;0.4203507;-1.42207;0.05579378
1584854188;963797;57.710216352;11.927582939;40.854311742;6.580896;4.293341;0.1832784;-1.426110278;-1.7145243666;212.7474058;7.857543;1.399518;-1.499557;8.717832;0.8989346;-0.9270571;-0.1662357
1584854189;13668;57.710219393;11.927586218;40.84708184;6.586862;4.347768;0.1843558;-1.3385796436;-1.7696889812;213.1760741;7.892391;2.024422;-1.047699;8.444638;0.672046;-1.051343;0.1301086
1584854189;63968;57.710222437;11.927589618;40.839864632;6.593119;4.40905;0.1683308;-1.2417432196;-1.812140177;213.61662765;7.931516;1.566212;-1.51588;8.978975;0.8161002;-0.6616336;-0.08158698
1584854189;113749;57.710225482;11.927593068;40.833041321;6.587585;4.470453;0.1591491;-1.1825870537;-1.8439345859;214.0668888;7.961232;1.303127;-0.8461192;9.1715;0.7920254;-1.261339;-0.351381
1584854189;163759;57.710228522;11.927596578;40.826990096;6.57752;4.54338;0.1536261;-1.1431721521;-1.8512209167;214.52429698;7.994127;0.7697543;0.1427525;9.002192;0.756581;-1.50786;-0.2308722
1584854189;213740;57.710231556;11.927600154;40.821004528;6.560382;4.629098;0.161014;-1.1081745908;-1.8310990234;214.97609055;8.029144;1.308355;0.796125;9.130914;0.8338177;-1.770743;0.1002119
1584854189;263789;57.710234582;11.927603802;40.814688564;6.550294;4.704583;0.1617365;-1.0723722665;-1.7840803472;215.42318469;8.064704;0.2583003;0.6489668;9.048434;0.8551519;-1.275731;0.2813511
1584854189;313758;57.710237605;11.927607512;40.807546008;6.543539;4.776995;0.1850154;-1.0494114641;-1.7321700117;215.86772401;8.101703;0.9314164;0.9992919;9.03394;0.591102;-1.41819;-0.1460158
1584854189;363721;57.710240626;11.927611279;40.800188276;6.542641;4.841763;0.1778717;-1.0857737265;-1.6900404624;216.32568341;8.139338;-0.803112;0.5062597;9.236217;1.000676;-1.4286;-0.002400814
1584854189;413756;57.710243645;11.92761511;40.792763731;6.535686;4.922436;0.184698;-1.1274035077;-1.6466605117;216.7851229;8.182027;0.1789639;0.9127645;9.256901;0.8020877;-1.62172;0.01714506
1584854189;463781;57.71024666;11.927619008;40.785417871;6.532291;4.996845;0.1755026;-1.1473770501;-1.6047048501;217.23913841;8.224311;-0.03085374;0.407518;8.73258;0.9025237;-1.432021;0.03100606
1584854189;513755;57.710249673;11.927622976;40.778122016;6.531034;5.083512;0.185067;-1.1734704999;-1.5671854297;217.68102336;8.276261;-0.398932;0.6662942;8.865116;0.9922827;-1.321468;0.2201595
1584854189;563782;57.710252686;11.927627013;40.770523878;6.532484;5.156068;0.1915427;-1.2062264354;-1.54955333;218.11567485;8.322163;-0.8872035;0.1949551;8.463395;1.117744;-1.27701;0.3337506
1584854189;613745;57.710255699;11.927631114;40.762298175;6.536326;5.233231;0.2107787;-1.2822717273;-1.5439731311;218.54205481;8.373187;-1.7199;0.1888752;8.496155;0.9391508;-1.371978;0.5559849
1584854189;663790;57.710258712;11.927635282;40.753031884;6.530667;5.308232;0.2127263;-1.3618973115;-1.5256983272;218.9669317;8.415874;-2.194111;-0.2912094;8.444691;0.7691536;-1.208928;0.08680605
1584854189;713830;57.710261723;11.927639513;40.743204961;6.522436;5.389806;0.2355112;-1.4741209017;-1.5051202543;219.3864341;8.461216;-1.094509;0.5672846;8.607659;0.7239546;-1.334931;-0.5932115
1584854189;763790;57.71026473;11.927643812;40.733705555;6.523136;5.465479;0.2230333;-1.5542674433;-1.5098115781;219.79769502;8.510157;-0.864581;-0.3180386;8.08612;0.83675;-1.23098;-0.09146167
1584854189;813753;57.710267736;11.927648175;40.724723686;6.525394;5.539079;0.2014291;-1.6444921949;-1.5419397144;220.20518611;8.559332;-1.34194;-1.618341;8.00816;1.015353;-1.026872;0.3748976
1584854189;863814;57.710270742;11.9276526;40.716884281;6.521061;5.612158;0.1778877;-1.688921706;-1.6173211308;220.59918209;8.60352;0.3236772;-1.917828;7.849941;0.9735155;-1.312282;-0.5740073
1584854189;913769;57.710273748;11.927657084;40.710579163;6.524579;5.677795;0.143771;-1.7477185663;-1.7398162399;220.99154621;8.649133;-1.313828;-3.160786;7.990435;0.8974151;-0.6893321;-0.2271086
1584854189;963886;57.710276756;11.92766163;40.705187188;6.53178;5.751791;0.1447353;-1.8275970769;-1.9061173769;221.38563548;8.703289;-1.62265;-3.604487;7.659982;1.384028;-1.233106;0.6366768
1584854190;13674;57.710279741;11.927666301;40.699579455;6.519779;5.829737;0.147076;-1.8925298742;-2.0937973823;221.7816659;8.746048;-0.5838944;-3.887665;7.537966;0.863342;-1.55898;-0.08300233
1584854190;63910;57.710282678;11.92767118;40.693826046;6.508332;5.909428;0.1395903;-1.9406464159;-2.2994806547;222.17558664;8.790888;-0.2443596;-4.31414;7.775872;0.9461821;-0.8198116;0.245076
1584854190;113777;57.710285611;11.927676116;40.688573068;6.497809;5.976578;0.1321009;-1.9711393449;-2.4674343748;222.56125543;8.828421;-0.1352345;-2.901306;7.828211;0.8838181;-1.127811;-0.1952152
1584854190;163851;57.710288538;11.927681111;40.684236762;6.483552;6.047781;0.1043585;-2.0139404988;-2.5936232839;222.95239285;8.866346;0.3350321;-2.16237;7.901108;0.9737691;-1.210322;-0.8545621
1584854190;213809;57.710291459;11.927686165;40.681109355;6.472961;6.11634;0.07555377;-2.0307904159;-2.6668612322;223.34701427;8.905551;0.4054192;-1.370377;7.895731;0.8981592;-1.118878;-0.8813561
1584854190;263802;57.710294374;11.92769128;40.679618112;6.459658;6.191628;0.04927279;-2.0261268442;-2.7159601705;223.7427211;8.947817;0.6040547;-1.00914;7.819859;1.059196;-1.196382;-0.1035752
1584854190;313769;57.710297283;11.927696459;40.6785556;6.447371;6.268132;0.05011382;-2.0386622584;-2.7361157313;224.14028015;8.992112;-0.2416577;-0.4839486;7.923529;0.9163318;-1.547511;-0.2277967
1584854190;363763;57.710300186;11.927701703;40.677892839;6.430584;6.348742;0.04111406;-2.0967666722;-2.7560077091;224.54062357;9.036533;-0.3211018;-0.660846;7.986826;0.7628957;-1.401861;0.02796627
1584854190;413772;57.710303082;11.927707016;40.677161842;6.417821;6.425231;0.04911364;-2.1494896215;-2.7715245864;224.94567143;9.081411;-0.631057;-0.2888989;7.95443;0.9101576;-1.303374;0.01154481
1584854190;463553;57.71030597;11.927712394;40.675876814;6.399819;6.502488;0.05731143;-2.2243946063;-2.7647702878;225.35731803;9.123598;-1.843886;-0.05368285;8.191356;0.8150499;-1.348703;0.0184058
1584854190;513753;57.710308849;11.927717836;40.674067377;6.369626;6.580958;0.06917369;-2.2952927878;-2.7287037977;225.76936287;9.158665;-0.2531158;0.7792845;8.192672;0.4672024;-1.537134;-0.144642
1584854190;563822;57.710311714;11.927723339;40.672681694;6.342442;6.65235;0.04393085;-2.3205899602;-2.684556821;226.17214424;9.191319;0.3540639;0.4929896;8.229353;0.5933869;-1.307386;-0.5916947
1584854190;613780;57.71031457;11.927728899;40.671675555;6.328806;6.715806;0.04856733;-2.3727184078;-2.6248320318;226.57552655;9.227992;-0.5510465;0.8653952;8.099258;0.823546;-1.26853;0.05044183
1584854190;663743;57.710317419;11.927734518;40.671008535;6.313143;6.79178;0.03981583;-2.4479769781;-2.5908049349;226.97720519;9.272758;-1.495506;0.2236829;7.732991;0.9266192;-1.520903;-0.1899503
1584854190;713716;57.710320259;11.927740204;40.670131162;6.292309;6.869367;0.05578255;-2.526890833;-2.5681083274;227.37581542;9.315651;-1.344408;0.3094154;7.990325;0.8404156;-1.265612;0.4265414
1584854190;763806;57.710323089;11.927745956;40.668762919;6.267284;6.952423;0.0616675;-2.6689866697;-2.5623083754;227.78296738;9.360291;-2.739918;-0.7337468;8.111936;0.8073286;-1.54328;0.7554586
1584854190;813751;57.710325909;11.927751777;40.6665834;6.240469;7.034431;0.07789063;-2.7760333005;-2.587603516;228.181799;9.403545;-0.7978089;-0.8581525;7.82204;0.727773;-1.576353;-0.2485342
1584854190;863748;57.710328716;11.927757662;40.664417363;6.21551;7.100397;0.06464951;-2.8081957216;-2.6112757968;228.56997543;9.436536;0.7743213;-0.6598542;7.567589;0.6790936;-1.108182;-0.1482842
1584854190;913726;57.710331516;11.927763598;40.662605438;6.204932;7.156446;0.05733515;-2.8045402079;-2.6376018728;228.95149591;9.471848;-0.7702007;-1.199735;7.668623;0.4583195;-0.9887797;-0.4881943
1584854190;963819;57.710334306;11.927769584;40.661217886;6.182391;7.225226;0.04914527;-2.8084732579;-2.659658171;229.33791744;9.509251;0.8581017;-1.040774;7.677916;1.112344;-1.228415;0.2388678
1584854191;13706;57.710337086;11.927775645;40.660344119;6.16196;7.292054;0.04018882;-2.7974622824;-2.6767439666;229.71621175;9.546926;0.04664204;-1.353284;7.468615;0.4879649;-1.45331;-0.1069843
1584854191;64016;57.710339852;11.927781804;40.661480062;6.145874;7.371588;0.02473928;-2.8210344416;-2.756789029;230.08636624;9.597503;-0.4548593;-2.045263;7.237838;0.8983863;-1.352119;0.1048362
